City_ID,City,Lat,Lng,Max Temp,Humidity,Cloudiness,Wind Speed,Country,Date
0,busselton,-33.65,115.3333,298.92,46,6,8.22,AU,1677053048
1,jibuti,11.5,42.5,298.36,39,8,7.65,DJ,1677053136
2,bredasdorp,-34.5322,20.0403,293.41,56,52,2.47,ZA,1677053137
3,beihai,21.4833,109.1,294.1,63,1,5.28,CN,1677053138
4,fortuna,40.5982,-124.1573,275.89,97,100,0.45,US,1677053139
5,tasiilaq,65.6145,-37.6368,266.24,90,100,5.69,GL,1677053140
6,bluff,-46.6,168.3333,284.71,58,78,4.33,NZ,1677052875
7,ichchapuram,19.1167,84.7,304.34,45,0,6.38,IN,1677053142
8,bambous virieux,-20.3428,57.7575,303.29,66,75,5.66,MU,1677053142
9,puerto escondido,15.85,-97.0667,298.11,51,100,2.43,MX,1677053143
10,les cayes,18.2,-73.75,295.09,83,16,1.83,HT,1677052620
11,mataura,-46.1927,168.8643,284.53,71,88,0.71,NZ,1677053145
12,mbaiki,3.8678,17.9892,306.13,19,35,2.47,CF,1677053146
13,harper,4.375,-7.7169,300.45,83,28,2.8,LR,1677053147
14,nacala,-14.5428,40.6728,303.77,70,20,5.14,MZ,1677053148
15,kapaa,22.0752,-159.319,297.33,82,100,11.83,US,1677053148
16,colares,38.7992,-9.4469,286.11,87,75,4.02,PT,1677053149
17,deputatskiy,69.3,139.9,241.86,86,88,2.29,RU,1677052608
18,kruisfontein,-34.0033,24.7314,295.39,43,3,2.41,ZA,1677052604
19,longyearbyen,78.2186,15.6401,268.06,80,40,1.54,SJ,1677053152
20,atuona,-9.8,-139.0333,299.41,77,25,5.06,PF,1677053152
21,bengkulu,-3.8004,102.2655,300.81,75,86,3.14,ID,1677052987
22,trincomalee,8.5711,81.2335,299.63,56,4,4.17,LK,1677052596
23,haines junction,60.7522,-137.5108,254.12,78,87,1.54,CA,1677053155
24,samarai,-10.6167,150.6667,300.81,79,99,4.2,PG,1677052587
25,xuddur,4.1213,43.8894,303.18,26,16,8.55,SO,1677053156
26,castro,-24.7911,-50.0119,287.84,97,30,1.53,BR,1677052899
27,qaanaaq,77.484,-69.3632,247.88,51,0,2.9,GL,1677053158
28,saint-philippe,-21.3585,55.7679,304.32,71,39,7.57,RE,1677053159
29,sitka,57.0531,-135.33,274.09,27,0,0.0,US,1677053160
30,richards bay,-28.783,32.0377,296.73,75,59,2.1,ZA,1677053161
31,mar del plata,-38.0023,-57.5575,292.64,96,75,0.89,AR,1677053163
32,rocky mountain house,52.3668,-114.9188,251.21,77,100,1.03,CA,1677053164
33,jurm,36.8648,70.8342,281.69,66,100,1.37,AF,1677053165
34,uruzgan,32.8333,66.0,285.88,18,0,0.78,AF,1677053166
35,port alfred,-33.5906,26.891,295.47,76,0,2.24,ZA,1677052976
36,kamenka,51.3223,42.7678,259.55,92,81,6.63,RU,1677053168
37,carnarvon,-24.8667,113.6333,299.47,75,3,10.23,AU,1677053169
38,rikitea,-23.1203,-134.9692,299.41,74,34,5.51,PF,1677053170
39,burias,11.4463,122.5497,298.62,87,100,3.02,PH,1677053170
40,yellowknife,62.456,-114.3525,244.57,76,0,2.57,CA,1677053172
41,huarmey,-10.0681,-78.1522,296.18,88,100,2.33,PE,1677053173
42,cabo san lucas,22.8909,-109.9124,291.21,65,76,0.89,MX,1677052616
43,albany,42.6001,-73.9662,274.77,69,64,0.45,US,1677053031
44,seoul,37.5683,126.9778,280.81,21,0,4.12,KR,1677052800
45,vaini,-21.2,-175.2,299.24,100,20,2.06,TO,1677053177
46,ushuaia,-54.8,-68.3,282.96,50,0,4.63,AR,1677053178
47,punta arenas,-53.15,-70.9167,282.21,71,0,9.26,CL,1677053062
48,tautira,-17.7333,-149.15,299.98,78,93,4.7,PF,1677052739
49,thompson,55.7435,-97.8558,236.24,74,0,3.6,CA,1677052881
50,jamestown,42.097,-79.2353,270.95,77,0,1.34,US,1677053170
51,kyren,51.6828,102.1408,268.99,77,34,0.76,RU,1677053182
52,pachino,36.7186,15.0907,286.59,65,10,1.35,IT,1677053183
53,saint-pierre,-21.3393,55.4781,304.36,66,75,2.57,RE,1677053184
54,teya,60.3778,92.6267,267.45,80,11,0.49,RU,1677053186
55,hilo,19.7297,-155.09,296.08,97,100,2.24,US,1677052976
56,leningradskiy,69.3833,178.4167,255.93,97,100,2.37,RU,1677053188
57,ixtapa,20.7,-105.2,291.02,78,8,1.15,MX,1677053188
58,husavik,66.0449,-17.3389,264.47,92,97,4.37,IS,1677053190
59,shubarshi,48.5872,57.1869,272.41,95,100,9.8,KZ,1677053191
60,esna,25.2934,32.554,289.16,33,0,5.56,EG,1677053192
61,kloulklubed,7.0419,134.2556,300.43,75,32,4.73,PW,1677053194
62,avera,33.194,-82.5271,289.88,91,86,4.24,US,1677052806
63,lompoc,34.6391,-120.4579,281.81,80,75,11.83,US,1677053195
64,fort nelson,58.8053,-122.7002,241.92,76,0,0.0,CA,1677053196
65,norman wells,65.282,-126.8329,245.17,76,40,1.03,CA,1677052981
66,aguada de pasajeros,22.385,-80.8508,293.12,85,5,2.61,CU,1677053199
67,butaritari,3.0707,172.7902,300.44,77,61,6.29,KI,1677053200
68,boueni,-12.9025,45.0761,304.14,72,100,1.64,YT,1677053201
69,barrow,71.2906,-156.7887,248.16,77,20,13.89,US,1677053201
70,margate,51.3813,1.3862,279.76,95,98,0.89,GB,1677052405
71,antalaha,-14.9003,50.2788,302.59,66,88,3.16,MG,1677053203
72,cherskiy,68.75,161.3,236.37,100,28,2.74,RU,1677052689
73,san patricio,28.017,-97.5169,295.12,89,39,10.09,US,1677052650
74,hokitika,-42.7167,170.9667,284.4,80,57,3.67,NZ,1677052966
75,cap malheureux,-19.9842,57.6142,302.85,66,41,4.02,MU,1677053207
76,korla,41.7597,86.1469,280.6,40,0,3.63,CN,1677053207
77,neryungri,56.6709,124.6491,260.61,89,100,3.31,RU,1677053208
78,muros,42.7762,-9.0603,284.87,94,100,1.68,ES,1677053210
79,roebourne,-20.7833,117.1333,305.84,56,64,5.73,AU,1677053211
80,nemuro,43.3236,145.575,267.99,81,100,1.39,JP,1677052721
81,panama city,8.9936,-79.5197,296.95,81,20,2.06,PA,1677053213
82,puerto leguizamo,-0.1934,-74.7819,293.82,78,65,0.49,CO,1677053214
83,victoria,22.2855,114.1577,293.84,57,0,4.02,HK,1677052365
84,altay,47.8667,88.1167,273.71,70,98,0.5,CN,1677053216
85,carutapera,-1.195,-46.02,296.61,95,100,0.94,BR,1677053217
86,te anau,-45.4167,167.7167,281.29,71,54,2.33,NZ,1677052968
87,ponta do sol,32.6667,-17.1,288.55,72,21,2.46,PT,1677053219
88,hermanus,-34.4187,19.2345,294.15,60,46,2.5,ZA,1677053173
89,airai,-8.9266,125.4092,292.95,86,100,1.35,TL,1677053220
90,vestmannaeyjar,63.4427,-20.2734,273.7,80,100,2.57,IS,1677053221
91,nanortalik,60.1432,-45.2371,272.41,98,100,5.11,GL,1677053224
92,vilhena,-12.7406,-60.1458,292.89,99,100,2.32,BR,1677053225
93,arraial do cabo,-22.9661,-42.0278,296.09,90,100,2.14,BR,1677052992
94,pevek,69.7008,170.3133,248.84,94,100,4.4,RU,1677053227
95,borborema,-21.6197,-49.0736,293.52,94,100,1.93,BR,1677053228
96,thinadhoo,0.5333,72.9333,300.91,76,18,7.57,MV,1677053229
97,puerto ayora,-0.7393,-90.3518,297.34,100,100,0.35,EC,1677053230
98,biak,-0.9131,122.8766,302.22,70,63,0.24,ID,1677053231
99,chany,55.3121,76.7647,271.96,91,100,7.37,RU,1677053232
100,baherden,38.4362,57.4316,291.11,26,0,1.87,TM,1677053233
101,saskylakh,71.9167,114.0833,243.42,99,97,2.81,RU,1677053234
102,grindavik,63.8424,-22.4338,274.41,69,75,5.66,IS,1677053235
103,rio grande,-32.035,-52.0986,293.71,75,0,3.07,BR,1677053198
104,olonets,60.9847,32.9698,258.69,92,21,2.54,RU,1677053237
105,pokhvistnevo,53.6524,52.1274,268.92,95,100,5.76,RU,1677053240
106,ferrol,43.4832,-8.2369,284.66,94,100,2.54,ES,1677053241
107,aksha,50.2814,113.2867,269.0,53,76,5.98,RU,1677053242
108,masuguru,-11.3667,38.4167,302.41,66,100,2.11,TZ,1677053243
109,hobart,-42.8794,147.3294,291.63,58,20,7.2,AU,1677053211
110,mehamn,71.0357,27.8492,263.1,85,0,5.66,NO,1677052677
111,neiafu,-18.65,-173.9833,300.97,79,82,6.04,TO,1677053245
112,el copey,10.1503,-73.9614,296.39,52,0,1.62,CO,1677053246
113,cape town,-33.9258,18.4232,295.99,54,0,3.09,ZA,1677052827
114,gananoque,44.3334,-76.1661,272.02,79,100,4.53,CA,1677053224
115,mahebourg,-20.4081,57.7,302.73,71,18,6.94,MU,1677053248
116,port elizabeth,-33.918,25.5701,295.55,71,0,4.47,ZA,1677052962
117,bushehr,28.9684,50.8385,293.19,44,0,2.92,IR,1677053252
118,kawalu,-7.3817,108.2082,299.51,85,99,0.92,ID,1677052709
119,stege,54.987,12.2846,276.53,93,100,6.22,DK,1677053253
120,lydenburg,-25.0978,30.4597,292.82,56,17,1.95,ZA,1677053254
121,sao joao da barra,-21.6403,-41.0511,296.36,92,25,2.85,BR,1677053255
122,chuy,-33.6971,-53.4616,290.25,89,0,1.56,UY,1677053256
123,khatanga,71.9667,102.5,250.71,99,100,0.6,RU,1677053257
124,kahului,20.8947,-156.47,296.95,78,0,5.66,US,1677053260
125,kodiak,57.79,-152.4072,275.88,75,100,0.0,US,1677052621
126,new norfolk,-42.7826,147.0587,291.44,40,57,1.79,AU,1677053166
127,johnstown,40.3267,-78.922,276.25,60,0,0.0,US,1677053262
128,pochutla,15.7432,-96.4661,295.83,42,100,2.6,MX,1677053263
129,dikson,73.5069,80.5464,258.01,96,100,3.63,RU,1677053258
130,guiratinga,-16.3494,-53.7583,293.73,90,100,0.8,BR,1677053265
131,padang,-0.9492,100.3543,303.18,79,99,2.1,ID,1677053266
132,avarua,-21.2078,-159.775,297.18,88,16,0.51,CK,1677053174
133,la ronge,55.1001,-105.2842,240.57,97,10,2.91,CA,1677053264
134,almeirim,-1.5233,-52.5817,295.4,99,100,0.46,BR,1677053268
135,aktash,50.3,87.7333,267.45,75,12,1.37,RU,1677053269
136,tomatlan,19.9333,-105.25,291.56,66,89,1.52,MX,1677053270
137,novikovo,51.1537,37.8879,260.39,87,16,5.77,RU,1677053271
138,saldanha,-33.0117,17.9442,291.58,67,0,4.55,ZA,1677053272
139,hamilton,39.1834,-84.5333,280.31,65,100,3.13,US,1677052514
140,dakar,14.6937,-17.4441,298.64,72,0,7.2,SN,1677053178
141,narsaq,60.9167,-46.05,273.27,98,100,1.34,GL,1677053274
142,vilyuysk,63.7553,121.6247,257.53,95,100,2.77,RU,1677053275
143,noumea,-22.2763,166.4572,299.14,77,100,6.05,NC,1677053276
144,alofi,-19.0595,-169.9187,300.29,77,76,9.39,NU,1677053277
145,nantucket,41.2835,-70.0995,277.21,73,0,4.63,US,1677053122
146,sri aman,1.2376,111.4621,303.69,58,100,1.58,MY,1677053278
147,lasa,46.6166,10.7002,281.76,63,99,0.5,IT,1677053280
148,hithadhoo,-0.6,73.0833,301.28,74,97,7.69,MV,1677053142
149,gizo,-8.103,156.8419,300.25,78,100,2.61,SB,1677053281
150,port-gentil,-0.7193,8.7815,302.13,84,40,2.06,GA,1677052809
151,denpasar,-8.65,115.2167,303.96,70,20,6.17,ID,1677053081
152,kavieng,-2.5744,150.7967,300.53,77,95,8.24,PG,1677053284
153,esperance,-33.8667,121.9,294.82,78,100,3.97,AU,1677053285
154,clinton,42.587,-82.9199,273.68,68,100,2.57,US,1677053287
155,kaspiyskiy,45.3929,47.3707,278.56,77,32,9.34,RU,1677053288
156,harbour breton,47.4833,-55.7983,269.11,77,100,6.05,CA,1677053289
157,burnie,-41.0667,145.9167,290.9,65,93,6.99,AU,1677053290
158,saint-augustin,51.226,-58.6502,252.77,95,70,2.99,CA,1677053239
159,ambon,-3.6954,128.1814,305.23,62,40,3.09,ID,1677053292
160,briancon,44.9,6.65,279.54,72,96,1.21,FR,1677053293
161,domoni,-12.2569,44.5319,301.41,78,100,2.16,KM,1677053294
162,guozhen,34.3659,107.359,281.03,72,96,1.98,CN,1677053295
163,provideniya,64.3833,-173.3,273.6,99,100,4.08,RU,1677053296
164,baykit,61.67,96.37,263.4,91,86,0.86,RU,1677053297
165,kaitangata,-46.2817,169.8464,283.25,68,62,3.14,NZ,1677053298
166,pisco,-13.7,-76.2167,297.18,78,100,0.51,PE,1677053299
167,tommot,58.9564,126.2925,263.41,92,100,2.88,RU,1677053300
168,fukue,32.6881,128.8419,282.08,63,100,1.65,JP,1677053301
169,bantry,51.6833,-9.45,278.59,68,8,6.27,IE,1677053303
170,buala,-8.145,159.5921,299.41,84,100,1.87,SB,1677053304
171,qax,41.4225,46.9242,282.7,61,82,4.02,AZ,1677053306
172,nikolskoye,59.7035,30.7861,261.37,91,100,2.48,RU,1677053307
173,comodoro rivadavia,-45.8667,-67.5,292.07,45,0,7.2,AR,1677052568
174,sarkand,45.41,79.9186,277.93,97,100,1.96,KZ,1677053308
175,pacific grove,36.6177,-121.9166,281.29,69,100,8.23,US,1677053309
176,miami,25.7743,-80.1937,295.16,85,20,0.0,US,1677053002
177,cayenne,4.9333,-52.3333,295.17,100,75,1.03,GF,1677053293
178,flinders,-34.5833,150.8552,293.85,75,100,1.34,AU,1677053312
179,hofn,64.2539,-15.2082,270.5,55,0,6.98,IS,1677053313
180,smithers,54.7804,-127.1743,258.33,56,0,6.17,CA,1677052789
181,monte alegre,-2.0078,-54.0692,294.66,97,100,0.21,BR,1677053315
182,mayenne,48.3333,-0.6667,279.84,95,53,1.24,FR,1677053316
183,sola,-13.8833,167.55,300.72,75,100,2.42,VU,1677053317
184,vrangel,42.7297,133.0839,271.2,64,55,1.19,RU,1677053318
185,east london,-33.0153,27.9116,296.64,56,0,5.06,ZA,1677053319
186,jacareacanga,-6.2222,-57.7528,294.39,100,97,0.84,BR,1677053320
187,broome,42.2506,-75.833,272.96,68,0,3.09,US,1677053195
188,san felipe,10.3399,-68.7425,293.93,91,93,2.34,VE,1677052726
189,isangel,-19.55,169.2667,298.99,82,99,4.14,VU,1677053322
190,vila do maio,15.1333,-23.2167,295.59,81,90,9.34,CV,1677053323
191,lorengau,-2.0226,147.2712,299.43,85,100,7.34,PG,1677053324
192,stornoway,58.2093,-6.3865,277.13,87,20,3.6,GB,1677053324
193,mweka,-4.85,21.5667,293.93,98,100,1.02,CD,1677053325
194,esso,55.9333,158.7,254.51,99,80,3.06,RU,1677053326
195,kakinada,16.9333,82.2167,307.41,33,0,4.39,IN,1677053327
196,tatawin,32.9297,10.4518,287.58,25,1,5.32,TN,1677053329
197,port blair,11.6667,92.75,301.12,64,72,5.72,IN,1677053330
198,yeppoon,-23.1333,150.7333,301.03,65,90,8.04,AU,1677053331
199,treinta y tres,-33.2333,-54.3833,288.96,95,0,2.12,UY,1677053331
200,luderitz,-26.6481,15.1594,297.3,48,0,4.72,NA,1677052757
201,grand-bourg,15.8835,-61.3148,292.12,74,68,7.52,GP,1677053333
202,hasilpur,29.7122,72.5553,302.59,13,100,0.92,PK,1677053334
203,manta,-0.95,-80.7333,299.03,89,75,1.03,EC,1677053335
204,shimoda,34.6667,138.95,280.43,67,93,2.15,JP,1677053336
205,noyabrsk,63.1994,75.4507,269.35,93,100,11.27,RU,1677053337
206,upernavik,72.7868,-56.1549,259.34,75,100,2.51,GL,1677053299
207,clyde river,70.4692,-68.5914,249.7,96,100,7.28,CA,1677053339
208,alenquer,-1.9417,-54.7383,294.57,96,100,0.32,BR,1677053340
209,la seyne-sur-mer,43.0982,5.8847,285.16,87,99,1.79,FR,1677053341
210,faanui,-16.4833,-151.75,300.82,74,90,5.49,PF,1677053189
211,agadez,19.75,10.25,291.09,18,0,3.9,NE,1677053055
212,pemba,-12.974,40.5178,301.81,72,100,4.26,MZ,1677053343
213,devils lake,48.1128,-98.8651,247.01,79,0,4.12,US,1677053344
214,zhigansk,66.7697,123.3711,250.87,98,100,3.06,RU,1677053345
215,terney,45.0503,136.6092,269.92,50,17,1.79,RU,1677053347
216,miyako,39.6367,141.9525,274.3,58,82,0.76,JP,1677053348
217,chokurdakh,70.6333,147.9167,232.56,100,42,1.35,RU,1677053093
218,christchurch,-43.5333,172.6333,285.32,91,100,4.63,NZ,1677052531
219,borogontsy,62.6683,131.1683,249.73,99,100,0.91,RU,1677053350
220,shirokiy,49.758,129.523,263.7,90,100,0.64,RU,1677052803
221,touros,-5.1989,-35.4608,298.59,85,100,4.65,BR,1677053352
222,manokwari,-0.8667,134.0833,300.24,82,71,4.8,ID,1677053353
223,pestovo,58.5938,35.8024,258.16,91,74,3.36,RU,1677053354
224,capoterra,39.1763,8.9718,280.82,100,20,0.51,IT,1677053355
225,sakiai,54.9547,23.0358,272.32,64,100,3.66,LT,1677053356
226,kiunga,-6.1219,141.2906,301.75,72,100,1.05,PG,1677053357
227,xichang,27.8964,102.2634,289.84,56,80,1.6,CN,1677053358
228,porto novo,6.4965,2.6036,301.66,72,44,2.37,BJ,1677053359
229,walvis bay,-22.9575,14.5053,289.68,94,100,4.12,NA,1677053144
230,katsuura,35.1333,140.3,280.64,54,97,2.51,JP,1677053361
231,port lincoln,-34.7333,135.8667,301.73,48,94,3.31,AU,1677053186
232,oranjemund,-28.55,16.4333,293.37,61,0,5.07,NA,1677053364
233,namatanai,-3.6667,152.4333,299.43,83,95,3.65,PG,1677053365
234,qaqortoq,60.7167,-46.0333,272.46,99,100,3.04,GL,1677052793
235,tuktoyaktuk,69.4541,-133.0374,242.17,100,99,3.15,CA,1677053203
236,baryshivka,50.361,31.3217,270.62,60,71,4.54,UA,1677053368
237,biltine,14.5333,20.9167,301.12,11,0,5.44,TD,1677053370
238,namibe,-15.1961,12.1522,298.26,53,17,1.42,AO,1677053371
239,tiksi,71.6872,128.8694,254.11,92,100,3.62,RU,1677053162
240,soure,-0.7167,-48.5233,296.7,91,76,1.94,BR,1677053373
241,shahrud,36.4182,54.9763,283.04,32,0,2.81,IR,1677053375
242,champerico,14.3,-91.9167,297.79,74,82,1.1,GT,1677053376
243,geraldton,-28.7667,114.6,299.38,65,40,11.32,AU,1677053377
244,mirabad,30.4362,61.8383,297.61,10,0,4.63,AF,1677053378
245,iqaluit,63.7506,-68.5145,231.69,89,25,2.01,CA,1677053378
246,mangrol,21.1167,70.1167,300.12,52,89,5.63,IN,1677053379
247,formosa,-26.1775,-58.1781,295.35,80,0,1.54,AR,1677053380
248,yerofey pavlovich,53.9667,121.9667,264.03,72,100,2.07,RU,1677053381
249,santo andre,-23.6639,-46.5383,293.18,90,100,1.54,BR,1677053300
250,vostok,46.4856,135.8833,261.72,90,95,1.6,RU,1677053383
251,vysokogornyy,50.1167,139.15,258.64,93,100,2.92,RU,1677053384
252,hami,42.8,93.45,280.58,28,100,2.12,CN,1677053385
253,vao,-22.6667,167.4833,298.19,78,100,7.36,NC,1677053183
254,pontianak,-0.0333,109.3333,305.14,55,75,3.6,ID,1677053386
255,manakara,-22.1333,48.0167,301.07,86,91,7.47,MG,1677053387
256,kwekwe,-18.9281,29.8149,297.44,72,100,5.44,ZW,1677053388
257,sulangan,11.1373,123.7228,299.46,80,100,4.02,PH,1677053389
258,itamaraju,-17.0392,-39.5311,294.68,96,100,0.29,BR,1677053390
259,wellington,-41.2866,174.7756,288.47,96,100,10.29,NZ,1677053326
260,lagoa,39.05,-27.9833,287.14,84,100,11.52,PT,1677053391
261,isilkul,54.9109,71.2728,274.44,90,100,7.99,RU,1677053392
262,shagonar,51.5333,92.8,260.69,85,100,0.18,RU,1677053393
263,bethel,41.3712,-73.414,275.09,79,0,2.06,US,1677053394
264,severo-kurilsk,50.6789,156.125,267.59,81,96,9.27,RU,1677053395
265,velika plana,44.3339,21.0768,284.06,70,3,0.79,RS,1677053396
266,upata,8.0086,-62.3989,290.64,98,43,1.28,VE,1677053397
267,tessalit,20.1986,1.0114,295.32,12,49,3.84,ML,1677053398
268,henties bay,-22.116,14.2845,293.34,74,0,1.7,NA,1677053399
269,tongliao,43.6125,122.2653,276.49,29,100,3.07,CN,1677053343
270,dayong,25.0209,118.2898,293.25,35,0,1.53,CN,1677053400
271,georgetown,5.4112,100.3354,305.11,70,20,4.12,MY,1677053401
272,tuatapere,-46.1333,167.6833,282.68,72,79,1.72,NZ,1677053404
273,mendeleyevsk,55.9082,52.2905,264.73,93,100,4.13,RU,1677053406
274,gwadar,25.1216,62.3254,297.52,62,63,5.47,PK,1677053407
275,prado,-17.3411,-39.2208,296.99,88,100,1.26,BR,1677053408
276,ughelli,5.4899,6.0074,302.86,65,17,1.36,NG,1677053409
277,taft,31.7471,54.2088,289.12,22,0,2.06,IR,1677053410
278,asau,46.4333,26.4,278.86,93,96,0.84,RO,1677053411
279,amahai,-3.3333,128.9167,302.65,72,74,0.52,ID,1677053413
280,drumnadrochit,57.3344,-4.4799,277.38,87,100,1.83,GB,1677053414
281,klaksvik,62.2266,-6.589,276.66,64,98,14.56,FO,1677053415
282,vardo,70.3705,31.1107,261.14,92,51,10.29,NO,1677053416
283,ilhabela,-23.7781,-45.3581,296.71,87,100,1.32,BR,1677053278
284,torbay,47.6666,-52.7314,273.31,94,100,4.02,CA,1677053369
285,progreso,21.2833,-89.6667,296.21,84,38,5.54,MX,1677053419
286,paita,-5.0892,-81.1144,297.85,76,100,2.03,PE,1677053420
287,kisangani,0.5167,25.2,305.87,43,96,1.62,CD,1677053421
288,beyneu,45.3167,55.2,279.26,71,100,10.18,KZ,1677053422
289,tigil,57.8,158.6667,258.81,97,100,1.13,RU,1677053423
290,souillac,-20.5167,57.5167,301.34,68,8,6.71,MU,1677053424
291,elumalai,9.8667,77.7,306.65,19,2,4.17,IN,1677053298
292,san javier,37.8063,-0.8374,285.92,77,0,0.89,ES,1677053426
293,karratha,-20.7377,116.8463,305.96,55,80,5.71,AU,1677053341
294,itoman,26.1247,127.6694,293.37,64,75,8.23,JP,1677053428
295,maarianhamina,60.0973,19.9348,270.83,86,100,1.03,AX,1677053429
296,cartagena del chaira,1.3349,-74.8429,294.27,67,82,0.71,CO,1677053430
297,mount gambier,-37.8333,140.7667,295.15,53,100,4.33,AU,1677053431
298,salta,-24.7859,-65.4117,287.91,89,20,1.56,AR,1677053414
299,kyshtovka,56.555,76.6271,272.78,91,100,7.4,RU,1677053433
300,enid,36.3956,-97.8784,293.75,66,75,7.72,US,1677053434
301,hay river,60.8156,-115.7999,243.53,97,100,2.46,CA,1677053435
302,beitbridge,-22.2167,30.0,297.84,62,89,10.03,ZW,1677053436
303,villa carlos paz,-31.4241,-64.4978,291.98,78,90,0.89,AR,1677053438
304,beringovskiy,63.05,179.3167,272.86,91,100,0.39,RU,1677053439
305,faya,18.3851,42.4509,293.44,20,0,3.19,SA,1677053440
306,ribeira grande,38.5167,-28.7,287.37,88,75,8.75,PT,1677053441
307,coihaique,-45.5752,-72.0662,286.12,76,100,3.6,CL,1677053418
308,shu,43.5983,73.7614,283.7,57,100,5.01,KZ,1677053443
309,kharp,66.8014,65.8081,262.0,95,100,4.09,RU,1677053443
310,iisalmi,63.5592,27.1907,256.44,94,49,0.23,FI,1677053444
311,ugoofaaru,5.6667,73.0,300.53,73,6,6.68,MV,1677053445
312,puerto barrios,15.7167,-88.6,295.23,100,40,0.0,GT,1677053446
313,agdam,39.991,46.9274,284.39,34,0,2.12,AZ,1677053447
314,aflao,6.116,1.1914,301.05,77,57,3.52,TG,1677053448
315,emmett,43.8735,-116.4993,272.61,74,5,3.5,US,1677053190
316,ancud,-41.8697,-73.8203,283.77,90,9,0.67,CL,1677053450
317,madras,13.0878,80.2785,304.14,71,20,5.66,IN,1677053451
318,olive branch,34.9618,-89.8295,294.11,78,100,11.32,US,1677053452
319,concarneau,47.875,-3.9225,282.31,88,100,5.46,FR,1677053452
320,nyurba,63.2842,118.3319,259.72,94,100,2.53,RU,1677053453
321,vila franca do campo,37.7167,-25.4333,287.38,94,100,2.68,PT,1677053454
322,ilulissat,69.2167,-51.1,261.16,85,100,8.23,GL,1677053240
323,aligudarz,33.4006,49.6949,274.79,88,0,1.79,IR,1677053456
324,kuna,43.4918,-116.4201,271.95,75,100,2.57,US,1677053266
325,malanje,-9.5402,16.341,291.78,97,100,1.78,AO,1677053458
326,palana,59.1167,159.9667,252.22,99,100,2.78,RU,1677053459
327,genoa,44.4129,8.9573,285.96,79,75,2.57,IT,1677053460
328,ilo,-17.6394,-71.3375,295.67,84,100,2.46,PE,1677053461
329,rawson,-43.3002,-65.1023,293.53,42,0,6.5,AR,1677053463
330,brawley,32.9787,-115.5303,289.29,44,0,13.38,US,1677053465
331,kaeo,-35.1,173.7833,292.77,91,40,1.11,NZ,1677053467
332,lebu,-37.6167,-73.65,285.61,90,2,6.36,CL,1677053468
333,waingapu,-9.6567,120.2641,300.6,82,100,4.98,ID,1677053469
334,tanabe,33.7333,135.3667,281.37,62,3,1.95,JP,1677053470
335,saint george,37.1041,-113.5841,285.48,37,100,15.43,US,1677053359
336,kencong,-8.2833,113.3667,301.5,78,66,4.94,ID,1677053472
337,yar-sale,66.8333,70.8333,261.66,95,100,5.46,RU,1677053473
338,hasaki,35.7333,140.8333,281.37,53,35,3.48,JP,1677053474
339,cairns,-16.9167,145.7667,299.85,97,75,4.12,AU,1677053475
340,polunochnoye,60.8697,60.4153,261.36,85,100,3.34,RU,1677053476
341,pangnirtung,66.1451,-65.7125,234.49,96,98,2.17,CA,1677053478
342,mpongwe,-13.5091,28.155,296.81,81,100,2.9,ZM,1677053480
343,port hawkesbury,45.6169,-61.3485,268.59,88,100,2.24,CA,1677053481
344,coquimbo,-29.9533,-71.3436,290.0,88,100,1.03,CL,1677053334
345,aklavik,68.2191,-135.0107,247.1,100,100,0.82,CA,1677053483
346,catalao,-18.1658,-47.9464,291.17,92,100,1.55,BR,1677053484
347,mitsamiouli,-11.3847,43.2844,301.66,70,100,3.92,KM,1677053485
348,bad frankenhausen,51.35,11.1,283.76,86,86,0.45,DE,1677053486
349,beloha,-25.1667,45.05,308.15,38,51,7.87,MG,1677053487
350,bilma,18.6853,12.9164,294.17,19,0,4.23,NE,1677053488
351,imatra,61.1719,28.7524,256.41,86,6,1.34,FI,1677053489
352,omsukchan,62.5333,155.8,238.81,98,61,2.33,RU,1677053490
353,pedasi,7.5333,-80.0333,294.3,85,4,6.82,PA,1677053491
354,nuuk,64.1835,-51.7216,262.34,94,100,5.07,GL,1677053339
355,boa vista,2.8197,-60.6733,296.14,83,40,4.63,BR,1677053463
356,caravelas,-17.7125,-39.2481,296.87,87,100,1.31,BR,1677053494
357,barranca,-10.75,-77.7667,296.23,84,100,2.08,PE,1677053496
358,damaturu,11.747,11.9608,298.93,18,0,5.75,NG,1677053497
359,lunenburg,44.3835,-64.3155,271.53,81,58,2.14,CA,1677053498
360,lata,40.1629,-8.3327,283.19,93,24,1.32,PT,1677053499
361,sirari,-1.2333,34.4333,299.65,31,97,2.4,TZ,1677053501
362,inhambane,-23.865,35.3833,300.34,68,95,9.48,MZ,1677053375
363,fairbanks,64.8378,-147.7164,260.88,83,0,1.54,US,1677053321
364,belaya gora,68.5333,146.4167,235.03,100,34,1.43,RU,1677053503
365,guerrero negro,27.9769,-114.0611,287.41,81,0,5.89,MX,1677053504
366,pavlohrad,48.5167,35.8667,271.04,62,48,5.83,UA,1677053505
367,ostrovnoy,68.0531,39.5131,258.91,97,99,3.14,RU,1677053506
368,baruun-urt,46.6806,113.2792,268.09,62,0,3.34,MN,1677053507
369,taganak,6.0833,118.3,300.33,76,22,3.65,PH,1677053508
370,baiyin,36.5583,104.2081,278.03,40,26,2.11,CN,1677053508
371,flin flon,54.7682,-101.865,239.36,98,7,2.42,CA,1677053509
372,doha,25.2867,51.5333,299.14,19,0,2.06,QA,1677053423
373,saint-louis,16.3333,-15.0,298.65,18,100,4.26,SN,1677053511
374,phalodi,27.1333,72.3667,304.32,10,70,2.04,IN,1677053513
375,eina,60.6295,10.5993,270.1,97,100,1.34,NO,1677053514
376,baoro,5.6667,15.9667,305.86,15,66,2.22,CF,1677053515
377,madisonville,37.3281,-87.4989,290.07,70,100,0.45,US,1677053282
378,port augusta,-32.5,137.7667,311.76,15,14,6.39,AU,1677053516
379,taman,45.2117,36.7161,279.2,73,57,8.57,RU,1677053517
380,yulara,-25.2406,130.9889,310.78,15,0,6.96,AU,1677053518
381,auki,-8.7676,160.7034,298.74,88,100,2.31,SB,1677053520
382,sosnovo,60.5514,30.2144,261.83,93,100,2.56,RU,1677053521
383,gat,31.61,34.7642,292.26,6,0,2.69,IL,1677053522
384,madingou,-4.1536,13.55,297.97,90,100,0.67,CG,1677053523
385,keti bandar,24.1447,67.4497,298.59,61,100,7.2,PK,1677053524
386,tucuma,-0.1833,-50.05,296.07,95,100,1.72,BR,1677053525
387,killybegs,54.6333,-8.45,278.99,72,73,7.7,IE,1677053527
388,lavrentiya,65.5833,-171.0,273.36,98,100,9.67,RU,1677053528
389,sur,22.5667,59.5289,300.66,42,100,3.27,OM,1677053529
390,kotelnikovo,47.6317,43.1461,271.92,93,100,6.91,RU,1677053530
391,puerto palomas,31.7667,-107.6167,280.85,60,59,12.74,MX,1677053531
392,morant bay,17.8815,-76.4093,295.21,83,1,4.14,JM,1677053532
393,marsh harbour,26.5412,-77.0636,296.54,77,92,3.01,BS,1677053533
394,lorton,38.7043,-77.2278,280.77,55,0,0.0,US,1677053534
395,kieta,-6.2167,155.6333,300.12,84,100,3.06,PG,1677053535
396,huilong,31.8111,121.655,279.22,63,87,3.91,CN,1677053536
397,port macquarie,-31.4333,152.9167,295.87,85,100,5.87,AU,1677053537
398,dingle,10.9995,122.6711,299.91,80,100,4.17,PH,1677053539
399,bac giang,21.2667,106.2,296.19,44,36,5.72,VN,1677053540
400,angoram,-4.0625,144.0661,297.42,94,100,0.98,PG,1677053542
401,kjollefjord,70.9457,27.3465,265.18,79,0,6.69,NO,1677053543
402,tazovskiy,67.4667,78.7,258.01,93,100,5.73,RU,1677053544
403,zapolyarnyy,69.4154,30.8136,250.75,99,27,1.81,RU,1677053545
404,kadiri,14.1167,78.1667,305.45,18,0,4.99,IN,1677053546
405,poykovskiy,61.2333,73.3333,272.31,92,100,6.0,RU,1677053547
406,sao felix do xingu,-6.6447,-51.995,294.31,100,97,0.7,BR,1677053548
407,nadym,65.5333,72.5167,264.75,95,100,8.21,RU,1677053549
408,yaan,7.3833,8.5667,300.98,63,10,2.93,NG,1677053550
409,mbinga,-10.9333,35.0167,297.15,62,75,1.93,TZ,1677053551
410,narodychi,51.2029,29.0823,271.38,67,96,3.3,UA,1677053552
411,angarsk,52.5367,103.8864,268.55,79,100,2.37,RU,1677053553
412,anadyr,64.75,177.4833,272.43,86,75,9.0,RU,1677053554
413,ostersund,63.1792,14.6357,265.4,93,75,5.66,SE,1677053555
414,lethem,3.3803,-59.7968,296.54,75,96,5.05,GY,1677053556
415,brookings,44.3114,-96.7984,261.03,78,100,8.23,US,1677053557
416,muli,2.9167,73.5667,300.69,73,47,5.06,MV,1677053558
417,nabire,-3.3667,135.4833,300.06,85,85,1.99,ID,1677053559
418,panzhihua,26.5851,101.7128,300.5,24,33,1.68,CN,1677053561
419,krasnyy chikoy,50.3643,108.7512,268.38,78,96,4.74,RU,1677053562
420,jiangyou,31.7667,104.7167,283.73,64,100,1.65,CN,1677053280
421,kuytun,54.3419,101.5036,265.25,84,77,0.97,RU,1677053563
422,sangar,63.9242,127.4739,248.81,98,100,2.08,RU,1677053292
423,mukdahan,16.5833,104.5,306.34,24,100,4.44,TH,1677053565
424,dandong,40.1292,124.3947,274.34,53,100,4.46,CN,1677053566
425,camana,-16.6228,-72.7111,296.57,83,100,2.81,PE,1677053567
426,bose,45.4612,8.0137,282.46,90,96,0.45,IT,1677053568
427,verkhnevilyuysk,63.4453,120.3167,258.06,94,100,2.83,RU,1677053568
428,westport,41.1415,-73.3579,277.14,80,0,1.79,US,1677053375
429,bosaso,11.2842,49.1816,300.69,49,19,3.97,SO,1677053570
430,nalut,30.3333,10.85,286.52,27,0,2.51,LY,1677053571
431,surt,31.2089,16.5887,288.04,57,0,2.98,LY,1677053572
432,petropavlovsk-kamchatskiy,53.0452,158.6483,262.47,56,67,4.09,RU,1677053573
433,north bend,43.4065,-124.2243,277.63,87,100,10.29,US,1677053573
434,iberia,29.9502,-91.7507,294.19,94,100,8.23,US,1677053574
435,phalia,32.4297,73.5775,299.77,18,100,1.44,PK,1677053575
436,bowen,-20.0167,148.2333,297.97,83,100,5.46,AU,1677053576
437,itarema,-2.9248,-39.9167,297.59,89,98,4.03,BR,1677053577
438,lodja,-3.4833,23.4333,294.17,98,100,2.35,CD,1677053578
439,port hardy,50.6996,-127.4199,271.05,58,38,2.75,CA,1677053532
440,paso de carrasco,-34.8603,-56.0522,293.12,77,5,4.74,UY,1677053579
441,berlevag,70.8578,29.0864,263.15,67,0,5.14,NO,1677053580
442,ashland,40.8167,-82.2665,274.8,75,100,3.23,US,1677053300
443,taoudenni,22.6783,-3.9836,295.61,12,63,4.64,ML,1677053581
444,turukhansk,65.8167,87.9833,261.61,88,95,4.07,RU,1677053583
445,yerbogachen,61.2767,108.0108,261.23,90,99,2.98,RU,1677053535
446,rocha,-34.4833,-54.3333,288.83,95,0,2.48,UY,1677053373
447,state college,40.7934,-77.86,273.65,73,0,0.89,US,1677053410
448,hovd,48.0056,91.6419,263.48,73,99,1.67,MN,1677053586
449,hualmay,-11.0964,-77.6139,296.22,85,98,2.52,PE,1677053587
450,vestmanna,62.1564,-7.1664,275.66,70,75,8.75,FO,1677053588
451,catamarca,-28.4696,-65.7852,298.02,52,79,0.89,AR,1677053450
452,aswan,24.0934,32.907,293.35,26,0,5.2,EG,1677053590
453,banfora,10.6333,-4.7667,298.85,14,55,1.5,BF,1677053591
454,nizhniy odes,63.6445,54.856,259.89,92,100,2.94,RU,1677053593
455,ayorou,14.7308,0.9174,296.89,12,2,6.26,NE,1677053594
456,monrovia,6.3005,-10.7969,297.02,90,35,2.64,LR,1677053595
457,lazarev,52.225,141.5131,257.33,81,98,1.28,RU,1677053596
458,santa quiteria,-4.3319,-40.1567,296.43,79,98,0.57,BR,1677053404
459,hacienda,15.936,120.1786,301.82,57,78,4.8,PH,1677053598
460,talnakh,69.4865,88.3972,256.04,96,99,4.2,RU,1677053599
461,albion,42.2431,-84.753,271.66,71,100,3.09,US,1677053596
462,sazava,49.8716,14.8967,283.08,80,24,0.85,CZ,1677053600
463,kokoda,-8.8785,147.7407,297.97,97,100,0.44,PG,1677053602
464,mainpuri,27.2333,79.0167,304.3,15,80,2.58,IN,1677053603
465,dhing,26.4667,92.4667,302.15,40,3,4.47,IN,1677053604
466,sisophon,13.5859,102.9737,307.49,26,74,2.48,KH,1677053605
467,araouane,18.9048,-3.5265,295.14,13,17,3.62,ML,1677053606
468,gravdal,68.1214,13.5031,272.09,69,20,4.63,NO,1677053607
469,serenje,-13.2325,30.2352,296.68,67,90,3.92,ZM,1677053610
470,foz,43.5692,-7.2544,284.18,92,100,2.25,ES,1677053611
471,maryville,35.7565,-83.9705,288.62,73,100,1.54,US,1677053380
472,pangkalanbuun,-2.6833,111.6167,301.78,81,99,2.13,ID,1677053613
473,zyryanka,65.75,150.85,237.84,98,16,0.92,RU,1677053614
474,bastia,42.6667,9.3333,285.54,80,13,1.25,FR,1677053615
475,ahipara,-35.1667,173.1667,290.63,87,11,1.64,NZ,1677053616
476,salinas,36.6777,-121.6555,281.52,62,20,8.23,US,1677053404
477,banda aceh,5.5577,95.3222,302.83,67,45,5.62,ID,1677053617
478,viedma,-40.8135,-62.9967,298.46,28,6,8.04,AR,1677053618
479,laurel,39.0993,-76.8483,281.84,46,0,2.57,US,1677053470
480,mayo,38.8876,-76.5119,282.12,45,0,2.57,US,1677053620
481,cidreira,-30.1811,-50.2056,293.88,79,27,0.75,BR,1677053621
482,neuquen,-38.9516,-68.0591,293.09,49,0,1.54,AR,1677053622
483,sao jose da coroa grande,-8.8978,-35.1478,298.72,85,93,4.49,BR,1677053623
484,yarada,17.65,83.2667,306.33,40,20,4.12,IN,1677053624
485,santiago de chuco,-8.15,-78.1833,283.0,94,99,0.56,PE,1677053625
486,vanavara,60.34,102.2797,263.3,89,100,3.52,RU,1677053360
487,mitu,1.1983,-70.1733,294.33,98,49,0.51,CO,1677053626
488,codrington,-38.2667,141.9667,294.77,60,100,5.9,AU,1677053627
489,arona,28.0996,-16.681,287.83,68,20,4.12,ES,1677053628
490,simpang,-1.2667,104.0833,302.65,62,99,3.78,ID,1677053629
491,ngama,11.7833,17.1667,302.03,10,4,5.47,TD,1677053630
492,filadelfia,39.9523,-75.1638,277.68,76,20,2.06,US,1677053601
493,cumberland,35.0502,-78.8664,288.42,92,0,0.0,US,1677053631
494,anqing,30.5092,117.0506,280.49,58,100,4.04,CN,1677053632
495,singaraja,-8.112,115.0882,301.65,78,41,3.27,ID,1677053633
496,esmeralda,21.8525,-78.1169,294.27,93,1,2.44,CU,1677053634
497,college,64.8569,-147.8028,260.87,83,40,1.54,US,1677053463
498,bandarbeyla,9.4942,50.8122,299.0,60,34,5.69,SO,1677053636
499,salinopolis,-0.6136,-47.3561,297.69,87,98,1.07,BR,1677053636
500,morondava,-20.2833,44.2833,301.4,77,100,4.65,MG,1677053637
501,jackson,42.4165,-122.8345,275.04,83,100,1.54,US,1677053140
502,salalah,17.0151,54.0924,302.2,26,0,3.6,OM,1677053639
503,camocim,-2.9022,-40.8411,297.39,88,89,3.63,BR,1677053640
504,atocha,-20.9333,-66.2333,281.04,73,39,1.77,BO,1677053641
505,gao,16.6362,1.637,295.59,13,71,6.24,ML,1677053642
506,manaure,11.7751,-72.4445,295.66,83,2,5.11,CO,1677053644
507,fayaoue,-20.65,166.5333,300.13,71,100,5.67,NC,1677053645
508,diapaga,12.0708,1.7889,298.66,13,0,4.54,BF,1677053646
509,emerald,-23.5333,148.1667,303.9,39,67,7.28,AU,1677053648
510,bambamarca,-6.6833,-78.5333,284.86,96,100,1.07,PE,1677053648
511,livny,52.4253,37.6069,258.1,90,9,5.69,RU,1677053650
512,grand gaube,-20.0064,57.6608,303.37,67,50,5.81,MU,1677053651
513,sabzevar,36.2126,57.6819,284.25,30,0,2.1,IR,1677053652
514,santarem,-2.4431,-54.7083,295.22,100,40,2.06,BR,1677053653
515,alyangula,-13.8483,136.4192,298.98,84,100,3.18,AU,1677053654
516,belmonte,-15.8631,-38.8828,298.28,85,100,2.61,BR,1677053656
517,zhezkazgan,47.8043,67.7144,274.14,93,75,8.0,KZ,1677053657
518,whitehorse,60.7161,-135.0538,260.58,66,75,3.6,CA,1677053658
519,pinega,64.7001,43.3936,256.84,94,80,2.84,RU,1677053659
520,roma,43.2128,-75.4557,274.24,61,100,6.69,US,1677053660
521,banjar,-8.19,114.9675,302.2,76,53,2.35,ID,1677053662
522,kualakapuas,-3.0091,114.3876,301.61,82,92,1.73,ID,1677053663
523,taltal,-25.4,-70.4833,292.9,84,72,0.43,CL,1677053664
524,takoradi,4.8845,-1.7554,300.84,81,83,2.53,GH,1677053665
525,abomsa,9.9833,39.9833,298.47,20,3,3.59,ET,1677053667
526,macomer,40.262,8.7699,283.89,55,12,0.62,IT,1677053668
527,coshocton,40.272,-81.8596,277.1,63,100,1.34,US,1677053669
528,xiaoweizhai,26.1903,107.5125,277.71,93,100,1.76,CN,1677053670
529,nome,64.5011,-165.4064,274.19,93,100,9.26,US,1677053671
530,khryashchevka,53.8119,49.0916,268.61,95,100,6.04,RU,1677053672
531,cockburn town,21.4612,-71.1419,297.7,73,41,6.81,TC,1677053673
532,fare,-16.7,-151.0167,300.91,72,40,4.28,PF,1677053674
533,bubaque,11.2833,-15.8333,296.65,71,61,2.6,GW,1677053675
534,la libertad,-2.2333,-80.9,297.58,84,99,3.16,EC,1677053676
535,yinchuan,38.4681,106.2731,280.97,35,2,1.22,CN,1677053677
536,hamadan,34.7992,48.5146,279.64,53,0,3.09,IR,1677053678
537,balgazyn,51.0,95.2,266.51,75,91,1.79,RU,1677053679
538,itaituba,-4.2761,-55.9836,294.28,100,100,0.41,BR,1677053680
539,evensk,61.95,159.2333,253.6,77,100,3.17,RU,1677053681
540,san cristobal,7.7669,-72.225,291.31,88,100,0.96,VE,1677053682
541,polyarnyy,69.1989,33.4478,255.39,100,85,3.15,RU,1677053683
542,kudahuvadhoo,2.6708,72.8944,300.39,75,49,6.5,MV,1677053685
543,pa sang,18.5262,98.9394,309.29,31,64,2.43,TH,1677053686
544,svetlaya,46.5389,138.3297,268.06,57,60,3.96,RU,1677053687
545,kununurra,-15.7667,128.7333,302.14,74,100,0.51,AU,1677053687
546,erenhot,43.6475,111.9767,274.37,25,0,3.72,CN,1677053689
547,mahon,39.8885,4.2658,284.46,100,100,2.06,ES,1677053690
548,altagracia de orituco,9.8601,-66.3814,292.06,90,31,2.54,VE,1677053691
549,kucevo,44.4775,21.67,283.33,78,11,1.68,RS,1677053692
550,sisimiut,66.9395,-53.6735,252.53,96,100,4.02,GL,1677053693
551,sabang,5.8933,95.3214,300.96,74,29,8.07,ID,1677053693
552,petropavlovka,50.6114,105.3196,267.75,79,91,0.77,RU,1677053694
553,vila velha,-20.3297,-40.2925,296.12,94,0,1.03,BR,1677053695
554,sinnamary,5.3833,-52.95,296.2,95,100,1.93,GF,1677053696
555,acarau,-2.8856,-40.12,297.96,88,91,4.35,BR,1677053698
556,clearlake,38.9582,-122.6264,276.21,71,9,3.84,US,1677053700
557,broken hill,-31.95,141.4333,307.26,21,9,6.17,AU,1677053701
558,aleppo,36.25,37.5,285.04,68,2,0.95,SY,1677053702
559,san quintin,30.4833,-115.95,286.63,86,100,7.46,MX,1677053663
560,kyra,49.5776,111.9753,269.29,61,87,6.73,RU,1677053704
561,imeni zhelyabova,58.9544,36.5956,257.73,91,64,3.43,RU,1677053705
